{"features": [{"geometry": {"coordinates": [-76.671562, 39.179945], "type": "Point"}, "properties": {"addy1": "BWI", "addy2": "Concourse A/B", "category": "fairtrade", "city": "Baltimore", "industry": "Cafe, Coffee Shop", "lat": 39.179945, "lon": -76.671562, "name": "Mayorga Organics, LLC.", "phone": "(410) 859-1966", "state": "MD", "susid": "100001", "website": "https://mayorgaorganics.com/", "zipcode": "21240"}, "type": "Feature"}, {"geometry": {"coordinates": [-76.996409, 38.885148], "type": "Point"}, "properties": {"addy1": "660 Pennsylvania Ave SE", "addy2": "", "category": "fairtrade", "city": "Washington", "industry": "Cafe, Coffee Shop", "lat": 38.885148, "lon": -76.996409, "name": "Peregrine Espresso", "phone": "202-629-4381", "state": "DC", "susid": "100002", "website": "http://peregrineespresso.com/", "zipcode": "20003"}, "type": "Feature"}, {"geometry": {"coordinates": [-77.03219, 38.913294], "type": "Point"}, "properties": {"addy1": "1718 14th St NW", "addy2": "", "category": "fairtrade", "city": "Washington", "industry": "Cafe, Coffee Shop", "lat": 38.913294, "lon": -77.03219, "name": "Peregrine Espresso", "phone": "202-525-5127", "state": "DC", "susid": "100003", "website": "http://peregrineespresso.com/", "zipcode": "20009"}, "type": "Feature"}, {"geometry": {"coordinates": [-76.997232, 38.908433], "type": "Point"}, "properties": {"addy1": "1309 5th St NE", "addy2": "", "category": "fairtrade", "city": "Washington", "industry": "Cafe, Coffee Shop", "lat": 38.908433, "lon": -76.997232, "name": "Peregrine Espresso", "phone": "202-543-5459", "state": "DC", "susid": "100004", "website": "http://peregrineespresso.com/", "zipcode": "20002"}, "type": "Feature"}, {"geometry": {"coordinates": [-77.0497694, 38.8127321], "type": "Point"}, "properties": {"addy1": "915 King St, Alexandria, VA", "addy2": "", "category": "fairtrade", "city": "Alexandria", "industry": "Crafts, Housewares, Gift shop", "lat": 38.8127321, "lon": -77.0497694, "name": "Ten Thousand Villages", "phone": "(703) 684-1435", "state": "VA", "susid": "100005", "website": "https://www.tenthousandvillages.com/alexandria#fndtn-home", "zipcode": "22314"}, "type": "Feature"}, {"geometry": {"coordinates": [-77.1436747, 38.885117], "type": "Point"}, "properties": {"addy1": "5852 Washington Blvd", "addy2": "", "category": "fairtrade", "city": "Arlington", "industry": "Gift Shop, Cafe, Coffee Shop, Accessories, Jewelry, Home Decor", "lat": 38.885117, "lon": -77.1436747, "name": "Trade Roots, Fair Trade Gift and Coffee Shop", "phone": "(571) 335-4274", "state": "VA", "susid": "100006", "website": "https://www.fairtraderoots.com/", "zipcode": "22205"}, "type": "Feature"}, {"geometry": {"coordinates": [-77.2327288, 38.871162], "type": "Point"}, "properties": {"addy1": "2920 District Ave", "addy2": "#160", "category": "fairtrade", "city": "Fairfax", "industry": "Gift Shop, Crafts, Clothing", "lat": 38.871162, "lon": -77.2327288, "name": "Fair Trade Winds", "phone": "(703) 877-0577", "state": "VA", "susid": "100007", "website": "https://www.fairtradewinds.net/", "zipcode": "22031"}, "type": "Feature"}, {"geometry": {"coordinates": [-77.0550833, 38.8059868], "type": "Point"}, "properties": {"addy1": "1213 King Street", "addy2": "", "category": "fairtrade", "city": "Alexandria", "industry": "Rugs, Clothing, Crafts, Art", "lat": 38.8059868, "lon": -77.0550833, "name": "Indus Imports", "phone": "(703) 349-1115", "state": "VA", "susid": "100008", "website": "https://indusimports.wordpress.com/", "zipcode": "22314"}, "type": "Feature"}, {"geometry": {"coordinates": [-77.02673, 38.9391872], "type": "Point"}, "properties": {"addy1": "3917 Georgia Ave NW ", "addy2": "", "category": "fairtrade", "city": "Washington", "industry": "Coffee Roaster, Coffee Shop, Cafe", "lat": 38.9391872, "lon": -77.02673, "name": "Qualia Coffee", "phone": "(202) 248-6423", "state": "DC", "susid": "100009", "website": "https://www.qualiacoffee.com/", "zipcode": "20011"}, "type": "Feature"}, {"geometry": {"coordinates": [-77.0071257, 38.910581], "type": "Point"}, "properties": {"addy1": "Eckington Pl NE & Harry Thomas Way NE", "addy2": "", "category": "fairtrade", "city": "Washington", "industry": "Coffee Roaster, Coffee Shop, Cafe", "lat": 38.910581, "lon": -77.0071257, "name": "Qualia Coffee", "phone": "(202) 248-6424", "state": "DC", "susid": "100010", "website": "https://www.qualiacoffee.com/", "zipcode": "20002"}, "type": "Feature"}, {"geometry": {"coordinates": [-77.0248554, 38.9162901], "type": "Point"}, "properties": {"addy1": "1921 8th St NW", "addy2": "#100", "category": "fairtrade", "city": "Washington", "industry": "Coffee Roaster, Coffee Shop, Cafe, Artisan Brews", "lat": 38.9162901, "lon": -77.0248554, "name": "Compass Coffee", "phone": "(202) 838-3139", "state": "DC", "susid": "100011", "website": "http://www.compasscoffee.com/", "zipcode": "20001"}, "type": "Feature"}, {"geometry": {"coordinates": [-77.0237647, 38.9105847], "type": "Point"}, "properties": {"addy1": "1535 7th St NW", "addy2": "", "category": "fairtrade", "city": "Washington", "industry": "Coffee Roaster, Coffee Shop, Cafe, Artisan Brews", "lat": 38.9105847, "lon": -77.0237647, "name": "Compass Coffee", "phone": "(202) 838-3139", "state": "DC", "susid": "100012", "website": "http://www.compasscoffee.com/", "zipcode": "20001"}, "type": "Feature"}, {"geometry": {"coordinates": [-77.0267261, 38.9071422], "type": "Point"}, "properties": {"addy1": "801 Mt Vernon Pl NW", "addy2": "", "category": "fairtrade", "city": "Washington", "industry": "Coffee Roaster, Coffee Shop, Cafe, Artisan Brews", "lat": 38.9071422, "lon": -77.0267261, "name": "Compass Coffee", "phone": "", "state": "DC", "susid": "100013", "website": "http://www.compasscoffee.com/", "zipcode": "20001"}, "type": "Feature"}, {"geometry": {"coordinates": [-77.0410546, 38.9016789], "type": "Point"}, "properties": {"addy1": "1401 Eye St NW", "addy2": "", "category": "fairtrade", "city": "Washington", "industry": "Coffee Roaster, Coffee Shop, Cafe, Artisan Brews", "lat": 38.9016789, "lon": -77.0410546, "name": "Compass Coffee", "phone": "(202) 838-3139", "state": "DC", "susid": "100014", "website": "http://www.compasscoffee.com/", "zipcode": "20005"}, "type": "Feature"}, {"geometry": {"coordinates": [-77.0410546, 38.9016783], "type": "Point"}, "properties": {"addy1": "1776 I St NW", "addy2": "", "category": "fairtrade", "city": "Washington", "industry": "Coffee Roaster, Coffee Shop, Cafe, Artisan Brews", "lat": 38.9016783, "lon": -77.0410546, "name": "Compass Coffee", "phone": "(202) 838-3139", "state": "DC", "susid": "100015", "website": "http://www.compasscoffee.com/", "zipcode": "20006"}, "type": "Feature"}, {"geometry": {"coordinates": [-77.0210724, 38.8971514], "type": "Point"}, "properties": {"addy1": "650 F St NW", "addy2": "", "category": "fairtrade", "city": "Washington", "industry": "Coffee Roaster, Coffee Shop, Cafe, Artisan Brews", "lat": 38.8971514, "lon": -77.0210724, "name": "Compass Coffee", "phone": "(202) 838-3139", "state": "DC", "susid": "100016", "website": "http://www.compasscoffee.com/", "zipcode": "20004"}, "type": "Feature"}, {"geometry": {"coordinates": [-77.0599436, 38.9351654], "type": "Point"}, "properties": {"addy1": "3425 Connecticut Ave NW", "addy2": "", "category": "fairtrade", "city": "Washington", "industry": "Grocery, Supermarket, Market", "lat": 38.9351654, "lon": -77.0599436, "name": "Yes! Organic Market", "phone": "(202) 363-1559", "state": "DC", "susid": "100017", "website": "http://www.yesorganicmarket.com/", "zipcode": "20008"}, "type": "Feature"}, {"geometry": {"coordinates": [-77.0482763, 38.9121801], "type": "Point"}, "properties": {"addy1": "4100 Georgia Ave NW", "addy2": "", "category": "fairtrade", "city": "Washington", "industry": "Grocery, Supermarket, Market", "lat": 38.9121801, "lon": -77.0482763, "name": "Yes! Organic Market", "phone": "(202) 291-5790", "state": "DC", "susid": "100018", "website": "http://www.yesorganicmarket.com/", "zipcode": "20011"}, "type": "Feature"}, {"geometry": {"coordinates": [-76.9927712, 38.936808], "type": "Point"}, "properties": {"addy1": "3809 12th St NE", "addy2": "", "category": "fairtrade", "city": "Washington", "industry": "Grocery, Supermarket, Market", "lat": 38.936808, "lon": -76.9927712, "name": "Yes! Organic Market", "phone": "(202) 832-7715", "state": "DC", "susid": "100019", "website": "http://www.yesorganicmarket.com/", "zipcode": "20017"}, "type": "Feature"}, {"geometry": {"coordinates": [-77.0458907, 38.92178], "type": "Point"}, "properties": {"addy1": "1825 Columbia Rd NW", "addy2": "", "category": "fairtrade", "city": "Washington", "industry": "Grocery, Supermarket, Market", "lat": 38.92178, "lon": -77.0458907, "name": "Yes! Organic Market", "phone": "(202) 462-2069", "state": "DC", "susid": "100020", "website": "http://www.yesorganicmarket.com/", "zipcode": "20009"}, "type": "Feature"}, {"geometry": {"coordinates": [-77.0403521, 38.9185218], "type": "Point"}, "properties": {"addy1": "2123 14th St NW", "addy2": "", "category": "fairtrade", "city": "Washington", "industry": "Grocery, Supermarket, Market", "lat": 38.9185218, "lon": -77.0403521, "name": "Yes! Organic Market", "phone": "(202) 232-6603", "state": "DC", "susid": "100021", "website": "http://www.yesorganicmarket.com/", "zipcode": "20009"}, "type": "Feature"}, {"geometry": {"coordinates": [-76.9969561, 38.8833919], "type": "Point"}, "properties": {"addy1": "410 8th St SE", "addy2": "", "category": "fairtrade", "city": "Washington", "industry": "Grocery, Supermarket, Market", "lat": 38.8833919, "lon": -76.9969561, "name": "Yes! Organic Market", "phone": "(202) 546-4325", "state": "DC", "susid": "100022", "website": "http://www.yesorganicmarket.com/", "zipcode": "20003"}, "type": "Feature"}, {"geometry": {"coordinates": [-77.022079, 38.894404], "type": "Point"}, "properties": {"addy1": "701 Pennsylvania Ave NW", "addy2": "", "category": "fairtrade", "city": "Washington", "industry": "Clothing, Upscale, Women's Clothing, Jewelery, Accessories", "lat": 38.894404, "lon": -77.022079, "name": "Pua Naturally", "phone": "(202) 347-4543", "state": "DC", "susid": "100023", "website": "https://www.puanaturally.com/", "zipcode": "20004"}, "type": "Feature"}, {"geometry": {"coordinates": [-77.04398, 38.921561], "type": "Point"}, "properties": {"addy1": "1837 Columbia Rd NW", "addy2": "", "category": "fairtrade", "city": "Washington", "industry": "Home Decor, Kitchen & Bath, Fashion", "lat": 38.921561, "lon": -77.04398, "name": "Urban Dwell", "phone": "(202) 558-9087", "state": "DC", "susid": "100024", "website": "http://www.urbandwelldc.com/", "zipcode": "20009"}, "type": "Feature"}, {"geometry": {"coordinates": [-77.084701, 38.960603], "type": "Point"}, "properties": {"addy1": "5335 Wisconsin Ave NW", "addy2": "", "category": "fairtrade", "city": "Washington", "industry": "Home Decor, Beer and Wine, Chocolate, Tea, Coffee, Furniture, Art", "lat": 38.960603, "lon": -77.084701, "name": "Cost Plus World Market", "phone": "(202) 244-8720", "state": "DC", "susid": "100025", "website": "https://www.worldmarket.com/", "zipcode": "20015"}, "type": "Feature"}, {"geometry": {"coordinates": [-77.063345, 38.862861], "type": "Point"}, "properties": {"addy1": "1301 South Joyce Street", "addy2": "Suite D22", "category": "fairtrade", "city": "Arlington", "industry": "Home Decor, Beer and Wine, Chocolate, Tea, Coffee, Furniture, Art", "lat": 38.862861, "lon": -77.063345, "name": "Cost Plus World Market", "phone": "(703) 415-7575", "state": "VA", "susid": "100026", "website": "https://www.worldmarket.com/", "zipcode": "22202"}, "type": "Feature"}, {"geometry": {"coordinates": [-77.120434, 38.848775], "type": "Point"}, "properties": {"addy1": "3532 S Jefferson St", "addy2": "", "category": "fairtrade", "city": "Falls Church", "industry": "Home Decor, Beer and Wine, Chocolate, Tea, Coffee, Furniture, Art", "lat": 38.848775, "lon": -77.120434, "name": "Cost Plus World Market", "phone": "(703) 933-2100", "state": "VA", "susid": "100027", "website": "https://www.worldmarket.com/", "zipcode": "22041"}, "type": "Feature"}, {"geometry": {"coordinates": [-77.03869, 38.92498], "type": "Point"}, "properties": {"addy1": "1658 Columbia Rd NW", "addy2": "", "category": "fairtrade", "city": "Washington ", "industry": "Coffee and Tea, Bookstore, Cafe, Community Events", "lat": 38.92498, "lon": -77.03869, "name": "The Potter's House", "phone": "(202) 232-5483", "state": "DC", "susid": "100028", "website": "http://pottershousedc.org/", "zipcode": "20009"}, "type": "Feature"}, {"geometry": {"coordinates": [-77.0691692, 38.9046031], "type": "Point"}, "properties": {"addy1": "3332 Cady's Alley NW", "addy2": "", "category": "fairtrade", "city": "Washington ", "industry": "Jewelry, Engagement Rings, Diamonds", "lat": 38.9046031, "lon": -77.0691692, "name": "Brilliant Earth", "phone": "(202) 448-9055", "state": "DC", "susid": "100029", "website": "https://www.brilliantearth.com/our-movement/", "zipcode": "20007"}, "type": "Feature"}, {"geometry": {"coordinates": [-77.044128, 38.9158356], "type": "Point"}, "properties": {"addy1": "1902 18 St NW", "addy2": "", "category": "fairtrade", "city": "Washington ", "industry": "Bookstore, Toys, Kitchen, Bath Products", "lat": 38.9158356, "lon": -77.044128, "name": "Middle East Books and More", "phone": "(202) 939-6050", "state": "DC", "susid": "100030", "website": "https://www.middleeastbooks.com/", "zipcode": "20009"}, "type": "Feature"}, {"geometry": {"coordinates": [-77.0090044, 38.8980977], "type": "Point"}, "properties": {"addy1": "50 Massachusetts Ave NE", "addy2": "", "category": "fairtrade", "city": "Washington ", "industry": "Clothing, Upscale, Women's Clothing, Jewelery, Accessories", "lat": 38.8980977, "lon": -77.0090044, "name": "Kashmir Imports", "phone": "(202) 789-8880", "state": "DC", "susid": "100031", "website": "http://www.kashmirboutiques.com/", "zipcode": "20002"}, "type": "Feature"}, {"geometry": {"coordinates": [-76.994575, 38.88288], "type": "Point"}, "properties": {"addy1": "804 E St. SE", "addy2": "2nd Floor", "category": "certbcorp", "city": "Washington", "industry": "Food/Drink", "lat": 38.88288, "lon": -76.994575, "name": "Divine Chocolate", "phone": "(202) 332-8913", "state": "DC", "susid": "100032", "website": "http://www.divinechocolate.com/us/", "zipcode": "20003"}, "type": "Feature"}, {"geometry": {"coordinates": [-77.033287, 38.917087], "type": "Point"}, "properties": {"addy1": "1432 U St. NW", "addy2": "", "category": "certbcorp", "city": "Washington", "industry": "Finance", "lat": 38.917087, "lon": -77.033287, "name": "City First Bank", "phone": "(202) 243-7100", "state": "DC", "susid": "100033", "website": "cityfirstbank.com", "zipcode": "20009"}, "type": "Feature"}, {"geometry": {"coordinates": [-77.022093, 38.900404], "type": "Point"}, "properties": {"addy1": "806 7th St NW", "addy2": "#201", "category": "certbcorp", "city": "Washington", "industry": "Marketing", "lat": 38.900404, "lon": -77.022093, "name": "Threespot Media", "phone": "(202) 471-1000", "state": "DC", "susid": "100034", "website": "https://www.threespot.com/", "zipcode": "20001"}, "type": "Feature"}, {"geometry": {"coordinates": [-77.065747, 38.904775], "type": "Point"}, "properties": {"addy1": "33rd St NW", "addy2": "Suite 250", "category": "certbcorp", "city": "Washington", "industry": "Health/Beauty", "lat": 38.904775, "lon": -77.065747, "name": "SoapBox Soaps", "phone": "(347) 762-7269", "state": "DC", "susid": "100035", "website": "https://www.soapboxsoaps.com/", "zipcode": "20007"}, "type": "Feature"}, {"geometry": {"coordinates": [-77.043704, 38.90834], "type": "Point"}, "properties": {"addy1": "1320 19th St NW", "addy2": "Suite 400", "category": "certbcorp", "city": "Washington", "industry": "Policy Consulting", "lat": 38.90834, "lon": -77.043704, "name": "Climate Advisers", "phone": "(202) 350-4950", "state": "DC", "susid": "100036", "website": "https://www.climateadvisers.com/", "zipcode": "20036"}, "type": "Feature"}, {"geometry": {"coordinates": [-77.044204, 38.911902], "type": "Point"}, "properties": {"addy1": "1611 Connecticut Ave NW", "addy2": "#200", "category": "certbcorp", "city": "Washington", "industry": "Business Management Consulting", "lat": 38.911902, "lon": -77.044204, "name": "EdOps", "phone": "(202) 352-7878", "state": "DC", "susid": "100037", "website": "ed-ops.com", "zipcode": "20009"}, "type": "Feature"}, {"geometry": {"coordinates": [-77.030092, 38.903678], "type": "Point"}, "properties": {"addy1": "1300 L St NW", "addy2": "#975", "category": "certbcorp", "city": "Washington", "industry": "Policy Consulting", "lat": 38.903678, "lon": -77.030092, "name": "Global Policy Solutions LLC", "phone": "(202) 265-5111", "state": "DC", "susid": "100038", "website": "globalpolicysolutions.com", "zipcode": "20005"}, "type": "Feature"}, {"geometry": {"coordinates": [-77.041181, 38.905188], "type": "Point"}, "properties": {"addy1": "1140 Connecticut Ave NW", "addy2": "#700", "category": "certbcorp", "city": "Washington", "industry": "Software", "lat": 38.905188, "lon": -77.041181, "name": "Network for Good", "phone": "(888) 284-7978", "state": "DC", "susid": "100039", "website": "networkforgood.com", "zipcode": "20036"}, "type": "Feature"}, {"geometry": {"coordinates": [-77.043099, 38.904233], "type": "Point"}, "properties": {"addy1": "1899 L St NW", "addy2": "#850", "category": "certbcorp", "city": "Washington", "industry": "Finance", "lat": 38.904233, "lon": -77.043099, "name": "Raffa P.C.", "phone": "(202) 822-5000", "state": "DC", "susid": "100040", "website": "https://www.raffa.com/pages/default.aspx", "zipcode": "20036"}, "type": "Feature"}, {"geometry": {"coordinates": [-77.059693, 38.904034], "type": "Point"}, "properties": {"addy1": "1055 Thomas Jefferson St NW", "addy2": "#650", "category": "certbcorp", "city": "Washington", "industry": "Utilities", "lat": 38.904034, "lon": -77.059693, "name": "CleanChoice Energy", "phone": "(800) 460-4900", "state": "DC", "susid": "100041", "website": "cleanchoiceenergy.com", "zipcode": "20007"}, "type": "Feature"}, {"geometry": {"coordinates": [-77.03154, 38.908403], "type": "Point"}, "properties": {"addy1": "1327 14th St NW", "addy2": "", "category": "certbcorp", "city": "Washington", "industry": "Marketing", "lat": 38.908403, "lon": -77.03154, "name": "PROVOC", "phone": "(202) 518-6808", "state": "DC", "susid": "100042", "website": "provoc.me", "zipcode": "20005"}, "type": "Feature"}, {"geometry": {"coordinates": [-77.040752, 38.906289], "type": "Point"}, "properties": {"addy1": "1201 Connecticut Ave NW", "addy2": "#300", "category": "certbcorp", "city": "Washington", "industry": "Philanthropic Advising", "lat": 38.906289, "lon": -77.040752, "name": "Arabella Advisors", "phone": "(202) 595-1020", "state": "DC", "susid": "100043", "website": "arabellaadvisors.com", "zipcode": "20036"}, "type": "Feature"}, {"geometry": {"coordinates": [-77.029278, 38.917415], "type": "Point"}, "properties": {"addy1": "2001 13th St NW", "addy2": "", "category": "certbcorp", "city": "Washington", "industry": "Technology Education", "lat": 38.917415, "lon": -77.029278, "name": "TechChange", "phone": "", "state": "DC", "susid": "100044", "website": "https://www.techchange.org/", "zipcode": "20009"}, "type": "Feature"}, {"geometry": {"coordinates": [-76.974745, 38.905324], "type": "Point"}, "properties": {"addy1": "1122 21st St NE", "addy2": "", "category": "certbcorp", "city": "Washington", "industry": "Architecture", "lat": 38.905324, "lon": -76.974745, "name": "Telesis Corporation", "phone": "(202)388-3342", "state": "DC", "susid": "100045", "website": "telesiscorp.com", "zipcode": "20002"}, "type": "Feature"}, {"geometry": {"coordinates": [-76.608611, 39.363889], "type": "Point"}, "properties": {"addy1": "529 E Belvedere Ave", "addy2": "Belvedere Square", "category": "certbcorp", "city": "Baltimore", "industry": "Food/Drink", "lat": 39.363889, "lon": -76.608611, "name": "HEX Ferments", "phone": "(410) 775-5044", "state": "MD", "susid": "100046", "website": "https://www.hexferments.com/", "zipcode": "21212"}, "type": "Feature"}, {"geometry": {"coordinates": [-76.9879034, 38.9003654], "type": "Point"}, "properties": {"addy1": "1380 H St NE", "addy2": "", "category": "vegan", "city": "Washington", "industry": "Restaurant", "lat": 38.9003654, "lon": -76.9879034, "name": "Turning+Natural", "phone": "(202) 800-8828", "state": "DC", "susid": "100047", "website": "turningnatural.com", "zipcode": "20002"}, "type": "Feature"}, {"geometry": {"coordinates": [-77.0204339, 38.9739154], "type": "Point"}, "properties": {"addy1": "6904 4th St NW", "addy2": "", "category": "vegan", "city": "Washington", "industry": "Restaurant", "lat": 38.9739154, "lon": -77.0204339, "name": "Vegaritos", "phone": "(202) 882-8988", "state": "DC", "susid": "100048", "website": "vegaritos.com", "zipcode": "20012"}, "type": "Feature"}, {"geometry": {"coordinates": [-77.0256592, 38.9278199], "type": "Point"}, "properties": {"addy1": "2928 Georgia Ave NW", "addy2": "", "category": "vegan", "city": "Washington", "industry": "Restaurant", "lat": 38.9278199, "lon": -77.0256592, "name": "NuVegan Caf\u00e9", "phone": "(202) 232-1700", "state": "DC", "susid": "100049", "website": "nuvegancafe.com", "zipcode": "20001"}, "type": "Feature"}, {"geometry": {"coordinates": [-77.0242601, 38.8989514], "type": "Point"}, "properties": {"addy1": " 712 7th St NW", "addy2": "", "category": "vegan", "city": "Washington", "industry": "Restaurant", "lat": 38.8989514, "lon": -77.0242601, "name": "HipCityVeg", "phone": "202-621-8057", "state": "DC", "susid": "100050", "website": "hipcityveg.com", "zipcode": "20001"}, "type": "Feature"}, {"geometry": {"coordinates": [-77.0191347, 38.974832], "type": "Point"}, "properties": {"addy1": "314 Carroll St NW", "addy2": "", "category": "vegan", "city": "Washington", "industry": "Restaurant", "lat": 38.974832, "lon": -77.0191347, "name": "Soupergirl", "phone": "(202) 609-7177", "state": "DC", "susid": "100051", "website": "thesoupergirl.com", "zipcode": "20012"}, "type": "Feature"}, {"geometry": {"coordinates": [-77.031248, 38.904019], "type": "Point"}, "properties": {"addy1": "1341 L St NW", "addy2": "", "category": "vegan", "city": "Washington", "industry": "Restaurant", "lat": 38.904019, "lon": -77.031248, "name": "Elizabeth's Gone Raw", "phone": "202-347-8349", "state": "DC", "susid": "100052", "website": "elizabethsgoneraw.com", "zipcode": "20005"}, "type": "Feature"}, {"geometry": {"coordinates": [-77.020216, 38.9749363], "type": "Point"}, "properties": {"addy1": "341 Cedar St NW", "addy2": "", "category": "vegan", "city": "Washington", "industry": "Restaurant", "lat": 38.9749363, "lon": -77.020216, "name": "Evolve Vegan Restaurant", "phone": "(202) 882-8999", "state": "DC", "susid": "100053", "website": "evolveveganrestaurant.com", "zipcode": "20012"}, "type": "Feature"}, {"geometry": {"coordinates": [-77.0023307, 38.900336], "type": "Point"}, "properties": {"addy1": "406 H St NE", "addy2": "", "category": "vegan", "city": "Washington", "industry": "Restaurant", "lat": 38.900336, "lon": -77.0023307, "name": "Fare Well", "phone": "(202) 367-9600", "state": "DC", "susid": "100054", "website": "eatfarewell.com", "zipcode": "20002"}, "type": "Feature"}, {"geometry": {"coordinates": [-77.0290117, 38.900255], "type": "Point"}, "properties": {"addy1": "1094 Palmer Alley NW", "addy2": "", "category": "vegan", "city": "Washington", "industry": "Restaurant", "lat": 38.900255, "lon": -77.0290117, "name": "Fruitive", "phone": "(202) 836-7749", "state": "DC", "susid": "100055", "website": "fruitive.com", "zipcode": "20001"}, "type": "Feature"}, {"geometry": {"coordinates": [-77.0024459, 38.9004319], "type": "Point"}, "properties": {"addy1": "402 H St NE", "addy2": "", "category": "vegan", "city": "Washington", "industry": "Restaurant", "lat": 38.9004319, "lon": -77.0024459, "name": "Khepra's Raw Food Juice Bar", "phone": "(202) 803-2063", "state": "DC", "susid": "100056", "website": "kheprasrawfoodjuicebar.com", "zipcode": "20002"}, "type": "Feature"}, {"geometry": {"coordinates": [-77.0256592, 38.9278199], "type": "Point"}, "properties": {"addy1": "2928 Georgia Ave NW", "addy2": "", "category": "vegan", "city": "Washington", "industry": "Restaurant", "lat": 38.9278199, "lon": -77.0256592, "name": "NuVegan Caf\u00e9", "phone": "(202) 232-1700", "state": "DC", "susid": "100057", "website": "nuvegancafe.com", "zipcode": "20001"}, "type": "Feature"}, {"geometry": {"coordinates": [-77.1443108, 38.960557], "type": "Point"}, "properties": {"addy1": "5255 Loughboro Rd NW", "addy2": "", "category": "vegan", "city": "Washington", "industry": "Restaurant", "lat": 38.960557, "lon": -77.1443108, "name": "Puree Artisan Juice Bar", "phone": "(202) 660-5632", "state": "DC", "susid": "100058", "website": "pureejuicebar.com", "zipcode": "20016"}, "type": "Feature"}, {"geometry": {"coordinates": [-77.0186156, 38.9657189], "type": "Point"}, "properties": {"addy1": "6224 3rd St NW", "addy2": "", "category": "vegan", "city": "Washington", "industry": "Restaurant", "lat": 38.9657189, "lon": -77.0186156, "name": "Senbeb Cafe", "phone": "(202) 249-0917", "state": "DC", "susid": "100059", "website": "senbebcafe.com", "zipcode": "20011"}, "type": "Feature"}, {"geometry": {"coordinates": [-77.0228385, 38.9027111], "type": "Point"}, "properties": {"addy1": "655 K St NW", "addy2": "", "category": "vegan", "city": "Washington", "industry": "Restaurant", "lat": 38.9027111, "lon": -77.0228385, "name": "Shouk", "phone": "(202) 652-1464", "state": "DC", "susid": "100060", "website": "shouk.com", "zipcode": "20001"}, "type": "Feature"}, {"geometry": {"coordinates": [-77.0450409, 38.9058197], "type": "Point"}, "properties": {"addy1": "1829 M St NW,", "addy2": "", "category": "vegan", "city": "Washington", "industry": "Restaurant", "lat": 38.9058197, "lon": -77.0450409, "name": "Soupergirl", "phone": "(202) 733-4401", "state": "DC", "susid": "100061", "website": "thesoupergirl.com", "zipcode": "20036"}, "type": "Feature"}, {"geometry": {"coordinates": [-77.0339925, 38.9304647], "type": "Point"}, "properties": {"addy1": "1370 Park Rd NW,", "addy2": "", "category": "vegan", "city": "Washington", "industry": "Restaurant", "lat": 38.9304647, "lon": -77.0339925, "name": "Sticky Fingers Bakery", "phone": "(202) 299-9700", "state": "DC", "susid": "100062", "website": "stickyfingersbakery.com", "zipcode": "20010"}, "type": "Feature"}, {"geometry": {"coordinates": [-78.304979, 38.4536546], "type": "Point"}, "properties": {"addy1": "1331 4th St SE", "addy2": "Ste 104", "category": "vegan", "city": "Washington", "industry": "Restaurant", "lat": 38.4536546, "lon": -78.304979, "name": "The Juice Laundry", "phone": "(202) 813-3679", "state": "DC", "susid": "100063", "website": "thejuicelaundry.com", "zipcode": "20003"}, "type": "Feature"}, {"geometry": {"coordinates": [-77.088286, 38.9738944], "type": "Point"}, "properties": {"addy1": "1440 P St NW", "addy2": "", "category": "crueltyfree", "city": "Washington", "industry": "Grocery", "lat": 38.9738944, "lon": -77.088286, "name": "Wholefoods", "phone": "(202) 332-4300", "state": "DC", "susid": "100064", "website": "wholefoodsmarket.com", "zipcode": "20005"}, "type": "Feature"}, {"geometry": {"coordinates": [-77.0882862, 38.9738526], "type": "Point"}, "properties": {"addy1": "2201 I St NW", "addy2": "", "category": "crueltyfree", "city": "Washington", "industry": "Grocery", "lat": 38.9738526, "lon": -77.0882862, "name": "Wholefoods", "phone": "(202) 296-1660", "state": "DC", "susid": "100065", "website": "wholefoodsmarket.com", "zipcode": "20037"}, "type": "Feature"}, {"geometry": {"coordinates": [-77.0882866, 38.9737688], "type": "Point"}, "properties": {"addy1": "600 H St NE", "addy2": "", "category": "crueltyfree", "city": "Washington", "industry": "Grocery", "lat": 38.9737688, "lon": -77.0882866, "name": "Wholefoods", "phone": "(202) 469-7410", "state": "DC", "susid": "100066", "website": "wholefoodsmarket.com", "zipcode": "20002"}, "type": "Feature"}, {"geometry": {"coordinates": [-77.0882869, 38.973727], "type": "Point"}, "properties": {"addy1": "4530 40th St NW", "addy2": "", "category": "crueltyfree", "city": "Washington", "industry": "Grocery", "lat": 38.973727, "lon": -77.0882869, "name": "Wholefoods", "phone": "(202) 237-5800", "state": "DC", "susid": "100067", "website": "wholefoodsmarket.com", "zipcode": "20016"}, "type": "Feature"}], "type": "FeatureCollection"}